[
    {
        "position": 1,
        "title": "Gramercy Tavern",
        "address": "42 E 20th St, New York, NY 10003",
        "latitude": 40.7384555,
        "longitude": -73.98850639999999,
        "rating": 4.6,
        "ratingCount": 4200,
        "priceLevel": "$$$$",
        "category": "Restaurant",
        "phoneNumber": "(212) 477-0777",
        "website": "http://www.gramercytavern.com/?utm_source=GoogleBusinessProfile&utm_medium=Website&utm_campaign=MapLabs",
        "cid": "3132777853886366741"
    },
    {
        "position": 2,
        "title": "Upland",
        "address": "345 Park Ave S, New York, NY 10010",
        "latitude": 40.7419313,
        "longitude": -73.984644,
        "rating": 4.5,
        "ratingCount": 2200,
        "priceLevel": "$$$",
        "category": "Restaurant",
        "phoneNumber": "(212) 686-1006",
        "website": "https://uplandnyc.com/?utm_source=GoogleBusinessProfile&utm_medium=Website&utm_campaign=MapLabs",
        "cid": "16524898314635901619"
    },
    {
        "position": 3,
        "title": "Carmine's - Time Square",
        "address": "200 W 44th St, New York, NY 10036",
        "latitude": 40.757498,
        "longitude": -73.986654,
        "rating": 4.5,
        "ratingCount": 17000,
        "priceLevel": "$$",
        "category": "Italian restaurant",
        "phoneNumber": "(212) 221-3800",
        "website": "https://www.carminesnyc.com/?olonwp=JjBtp_vMLk25gkYh_bnoiQ",
        "cid": "1155783591561813087"
    },
    {
        "position": 4,
        "title": "Manhatta",
        "address": "28 Liberty St 60th floor, New York, NY 10005",
        "latitude": 40.707997399999996,
        "longitude": -74.00888259999999,
        "rating": 4.7,
        "ratingCount": 2600,
        "priceLevel": "$$$$",
        "category": "Restaurant",
        "phoneNumber": "(212) 230-5788",
        "website": "https://www.manhattarestaurant.com/?utm_source=GoogleBusinessProfile&utm_medium=Website&utm_campaign=MapLabs",
        "cid": "6967162704871465124"
    },
    {
        "position": 5,
        "title": "Le Coucou",
        "address": "138 Lafayette St, New York, NY 10013",
        "latitude": 40.7191167,
        "longitude": -74.0001861,
        "rating": 4.5,
        "ratingCount": 1800,
        "priceLevel": "$$$$",
        "category": "Restaurant",
        "phoneNumber": "(212) 271-4252",
        "website": "https://www.lecoucou.com/?utm_source=GoogleBusinessProfile&utm_medium=Website&utm_campaign=MapLabs",
        "cid": "15008473672031617693"
    },
    {
        "position": 6,
        "title": "Boucherie Union Square",
        "address": "225 Park Ave S, New York, NY 10003",
        "latitude": 40.7372552,
        "longitude": -73.9882246,
        "rating": 4.7,
        "ratingCount": 3700,
        "priceLevel": "$50–100",
        "category": "French restaurant",
        "phoneNumber": "(212) 353-0200",
        "website": "https://www.boucherieus.com/",
        "cid": "3442553861032018645"
    },
    {
        "position": 7,
        "title": "OLIO E PIÙ",
        "address": "3 Greenwich Ave, New York, NY 10014",
        "latitude": 40.7338208,
        "longitude": -73.99979309999999,
        "rating": 4.7,
        "ratingCount": 8000,
        "priceLevel": "$50–100",
        "category": "Italian restaurant",
        "phoneNumber": "(212) 243-6546",
        "website": "https://www.olioepiu.com/",
        "cid": "2975234135803511093"
    },
    {
        "position": 8,
        "title": "Via Carota",
        "address": "51 Grove St, New York, NY 10014",
        "latitude": 40.7331437,
        "longitude": -74.0036671,
        "rating": 4.4,
        "ratingCount": 2800,
        "priceLevel": "$50–100",
        "category": "Italian restaurant",
        "phoneNumber": "(212) 255-1962",
        "website": "http://viacarota.com/",
        "cid": "16472713729583313083"
    },
    {
        "position": 9,
        "title": "Piccola Cucina Osteria Siciliana",
        "address": "196 Spring St, New York, NY 10012",
        "latitude": 40.7250308,
        "longitude": -74.0032774,
        "rating": 4.6,
        "ratingCount": 2200,
        "priceLevel": "$30–50",
        "category": "Italian restaurant",
        "phoneNumber": "(646) 478-7488",
        "website": "http://www.piccolacucinagroup.com/",
        "cid": "5472139628830047106"
    },
    {
        "position": 10,
        "title": "Boucherie West Village",
        "address": "99 7th Ave S, New York, NY 10014",
        "latitude": 40.733047,
        "longitude": -74.0028772,
        "rating": 4.7,
        "ratingCount": 5800,
        "priceLevel": "$50–100",
        "category": "French restaurant",
        "phoneNumber": "(212) 837-1616",
        "website": "https://www.boucherieus.com/",
        "cid": "14366891226444778354"
    }
]
